
[{"url":"/parks/braga/parque-fitness-das-camelias-sao-lazaro/","name":"Parque Fitness das Camélias - São Lázaro","facilities":["water-fountain","seating","rubbish-bin","24-hour-access"],"equipment":[],"longitude":-8.423247,"latitude":41.539912,"location_street_address":"Avenida Doutor Francisco Pires Gonçalves","location_city":"Braga"},{"url":"/parks/braga/parque-infantil-da-praca-da-justica/","name":"Parque Infantil da Praça da Justiça","facilities":["fence","water-fountain","seating","rubbish-bin","padded-floor","24-hour-access"],"equipment":["slide","seesaw","rocking-horse"],"longitude":-8.41272,"latitude":41.5482,"location_street_address":"Praça da Justiça 155","location_city":"Braga"},{"url":"/parks/braga/parque-infantil-da-rua-jose-sarmento/","name":"Parque Infantil da Rua José Saramento","facilities":["seating","rubbish-bin","padded-floor","24-hour-access"],"equipment":["slide","rocking-horse"],"longitude":-8.41368,"latitude":41.55675,"location_street_address":"Rua José Saramento","location_city":"Braga"},{"url":"/parks/braga/parque-infantil-das-camelias-sao-lazaro/","name":"Parque Infantil das Camélias - São Lázaro","facilities":["water-fountain","seating","rubbish-bin","24-hour-access"],"equipment":["ropes","dragon-swing"],"longitude":-8.423464,"latitude":41.539962,"location_street_address":"Avenida Doutor Francisco Pires Gonçalves","location_city":"Braga"},{"url":"/parks/braga/parque-infantil-do-bocage/","name":"Parque Infantil do Bocage","facilities":["water-fountain","seating","rubbish-bin","padded-floor","24-hour-access","bicycle-parking"],"equipment":["swing","play-house","slide","seesaw","rocking-horse","monkey-bars","ropes","panel-games","table-tennis"],"longitude":-8.40931,"latitude":41.56114,"location_street_address":"Praça do Bocage","location_city":"Braga"},{"url":"/parks/braga/parque-infantil-do-bom-jesus/","name":"Parque Infantil do Bom Jesus","facilities":["water-fountain","seating","rubbish-bin","padded-floor","24-hour-access"],"equipment":["play-house","slide","seesaw","rocking-horse"],"longitude":-8.3751002,"latitude":41.5551463,"location_street_address":"Parque Bom Jesus, estrada de Bom Jesus","location_city":"Braga"},{"url":"/parks/braga/parque-infantil-do-campo-da-vinha/","name":"Parque Infantil do Campo da Vinha","facilities":["water-fountain","seating","rubbish-bin","padded-floor","24-hour-access"],"equipment":["play-house","swing","slide","rocking-horse","seesaw","numbers"],"longitude":-8.425924,"latitude":41.552169,"location_street_address":"Rua Doutor Justino Cruz","location_city":"Braga"},{"url":"/parks/braga/parque-infantil-do-parque-aborizado-de-lamacaes/","name":"Parque Infantil do Parque Aborizado de Lamaçães","facilities":["water-fountain","seating","rubbish-bin","padded-floor","24-hour-access"],"equipment":["play-house","swing","slide","rocking-horse","numbers"],"longitude":-8.403023,"latitude":41.537699,"location_street_address":"Rua Victor de Sá","location_city":"Braga"},{"url":"/parks/braga/parque-infantil-do-parque-da-ponte-sao-lazaro/","name":"Parque Infantil do Parque da Ponte - São Lázaro","facilities":["water-fountain","seating","rubbish-bin","padded-floor","24-hour-access"],"equipment":["play-house","swing","slide","ropes"],"longitude":-8.421766,"latitude":41.541024,"location_street_address":"Avenida Doutor Francisco Pires Gonçalves","location_city":"Braga"},{"url":"/parks/braga/parque-infantil-do-sao-salvador-de-montelios/","name":"Parque Infantil do São Salvador de Montélios","facilities":["water-fountain","seating","rubbish-bin","padded-floor","24-hour-access"],"equipment":["play-house","swing","slide","seesaw","rocking-horse","merry-go-round","ropes"],"longitude":-8.440783,"latitude":41.55968,"location_street_address":"Rua São Salvador de Montélios","location_city":"Braga"}]